[{"geometry": {"location": {"lat": 25.15581539999999, "lng": 121.766576}}, "name": "\u5929\u540e\u5bae", "rating": 4.6, "user_ratings_total": 38}, {"geometry": {"location": {"lat": 25.1295643, "lng": 121.7405548}}, "name": "\u57fa\u9686\u6176\u5b89\u5bae", "rating": 4.5, "user_ratings_total": 342}, {"geometry": {"location": {"lat": 25.1281139, "lng": 121.7431112}}, "name": "\u5960\u6fdf\u5bae\u958b\u6f33\u8056\u738b", "rating": 4.5, "user_ratings_total": 280}, {"geometry": {"location": {"lat": 25.1580996, "lng": 121.7669893}}, "name": "\u548c\u5e73\u5cf6\u5929\u986f\u5bae", "rating": 4.4, "user_ratings_total": 185}, {"geometry": {"location": {"lat": 25.1020914, "lng": 121.7385868}}, "name": "\u5b89\u5fb7\u5bae", "rating": 4.3, "user_ratings_total": 27}, {"geometry": {"location": {"lat": 25.1354551, "lng": 121.7486183}}, "name": "\u57fa\u9686\u54e8\u8239\u982d\u89ba\u4fee\u5bae", "rating": 4.3, "user_ratings_total": 15}, {"geometry": {"location": {"lat": 25.1555565, "lng": 121.7430452}}, "name": "\u767d\u7c73\u7515\u7832\u81fa", "rating": 4.2, "user_ratings_total": 3008}, {"geometry": {"location": {"lat": 25.1446497, "lng": 121.7807508}}, "name": "\u69d3\u5b50\u5bee\u7832\u81fa", "rating": 4.2, "user_ratings_total": 600}, {"geometry": {"location": {"lat": 25.1452217, "lng": 121.7483444}}, "name": "\u4ed9\u6d1e\u5dd6\u6700\u52dd\u5bfa", "rating": 4.2, "user_ratings_total": 543}, {"geometry": {"location": {"lat": 25.1492974, "lng": 121.7184154}}, "name": "\u5927\u7aff\u6797\u4ee3\u5929\u5bae\u4ed9\u516c\u5edf\u5b5a\u4f51\u5e1d\u541b", "rating": 4.2, "user_ratings_total": 39}, {"geometry": {"location": {"lat": 25.1283104, "lng": 121.7435851}}, "name": "\u57fa\u9686\u5edf\u53e3\u591c\u5e02", "rating": 4.1, "user_ratings_total": 37967}, {"geometry": {"location": {"lat": 25.158659, "lng": 121.709348}}, "name": "\u5927\u6b66\u5d19\u7832\u53f0", "rating": 4.1, "user_ratings_total": 954}, {"geometry": {"location": {"lat": 25.1233394, "lng": 121.7337035}}, "name": "\u7345\u7403\u5dba\u5e73\u5b89\u5bae", "rating": 4.1, "user_ratings_total": 47}, {"geometry": {"location": {"lat": 25.1203663, "lng": 121.7349459}}, "name": "\u7345\u7403\u5dba\u7832\u81fa", "rating": 4, "user_ratings_total": 521}, {"geometry": {"location": {"lat": 25.1376224, "lng": 121.7575618}}, "name": "\u4e8c\u6c99\u7063\u7832\u81fa", "rating": 4, "user_ratings_total": 337}, {"geometry": {"location": {"lat": 25.1273893, "lng": 121.7442136}}, "name": "\u8a31\u6893\u6851\u53e4\u539d", "rating": 4, "user_ratings_total": 225}, {"geometry": {"location": {"lat": 25.1582618, "lng": 121.7718409}}, "name": "\u793e\u5bee\u6771\u7832\u53f0", "rating": 3.9, "user_ratings_total": 268}, {"geometry": {"location": {"lat": 25.1290706, "lng": 121.7331009}}, "name": "\u57fa\u9686\u958b\u57fa\u8001\u5927\u516c\u5edf", "rating": 3.9, "user_ratings_total": 49}, {"geometry": {"location": {"lat": 25.129322, "lng": 121.7394628}}, "name": "\u4ee3\u660e\u5bae", "rating": 3.9, "user_ratings_total": 7}, {"geometry": {"location": {"lat": 25.1300599, "lng": 121.7421144}}, "name": "\u6797\u958b\u90e1\u6d0b\u6a13", "rating": 3.8, "user_ratings_total": 138}]